{
  "JCT":[
    {
      "name":"上社JCT",
      "lat":35.171083450388686,
      "lng":137.00493096588644
    },
    {
      "name":"丸田町JCT",
      "lat":35.16137594774068,
      "lng":136.9155607018515
    },
    {
      "name":"一宮JCT",
      "lat":35.2835425718088, 
      "lng":136.781266974018
    },
    {
      "name":"豐田JCT",
      "lat":35.02117429811328, 
      "lng":137.14762940107664
    },
    {
      "name":"明道町JCT",
      "lat":35.1777957074399, 
      "lng":136.8900326287464
    },
    {
      "name":"鶴舞南JCT",
      "lat":35.15031881963081, 
      "lng":136.9171527295216
    },
    {
      "name":"清洲JCT",
      "lat":35.221770160996115, 
      "lng":136.8551122910619
    },
    {
      "name":"名古屋南JCT",
      "lat":35.04985896210432,
      "lng":136.9441412664965
    },
    {
      "name":"新洲崎JCT",
      "lat":35.16221412886644, 
      "lng":136.89066011565808
    },
    {
      "name":"日進JCT",
      "lat":35.15733714110145,
      "lng":137.05104198219382
    },
    {
      "name":"東海JCT",
      "lat":35.58074397220985, 
      "lng":139.75653079388178
    },
    {
      "name":"高針JCT",
      "lat":35.14742637260427,
      "lng":136.9998720242073
    },
    {
      "name":"山王JCT",
      "lat":35.1519791239143, 
      "lng":136.8927453125985
    },
    {
      "name":"半田中央JCT",
      "lat":34.9042343791359,
      "lng":136.8993126468011
    },
    {
      "name":"名古屋西JCT",
      "lat":35.15840324411011,
      "lng":136.8181534825303
    },
    {
      "name":"楠JCT",
      "lat":35.229318738568104,
      "lng":136.9093643571037
    },
    {
      "name":"飛島JCT",
      "lat":35.05251154328878,
      "lng":136.81811305324143
    },
    {
      "name":"豊田東JCT",
      "lat":35.045188793681966,
      "lng":137.19370643116267
    },
    {
      "name":"小牧JCT",
      "lat":35.28527097674991,
      "lng":136.9792685863383
    },
    {
      "name":"東片端JCT",
      "lat":35.17863497866804,
      "lng": 136.91376322498675
    }
  ]

}