{
  "JCT":[
    {
      "name":"上社ＪＣＴ",
      "lat":35.171083450388686,
      "lng": 137.00493096588644
    },
    {
      "name":"丸田町ＪＣＴ",
      "lat":35.16137594774068,
      "lng": 136.9155607018515
    },
    {
      "name":"一宮JCT",
      "lat":35.2835425718088, 
      "lng": 136.781266974018
    },
    {
      "name":"豐田JCT",
      "lat":35.02117429811328, 
      "lng": 137.14762940107664
    },
    {
      "name":"東片端ＪＣＴ",
      "lat":35.17863497866804,
      "lng": 136.91376322498675
    }
  ]

}